[{"city":"Casablanca","enterprises":[{"name":"Agence CMGP.CAS Casablanca","phoneNumber":"0522249115","websiteLink":"https://www.cmgp-cas.com/","location":"Mohamed, 135 Rue du Lieutenant Mohamed Mahroud, Casablanca 20310"},{"name":"OCONTROL s.a.r.l","phoneNumber":"0522242242","websiteLink":"http://www.ocontrol.ma/","location":"176 Bd Zubayr Ibn Al Awam, Casablanca 20250"},{"name":"AIS Agricultural irrigation system","phoneNumber":"0661100228","websiteLink":"http://www.ais-agri.ma/","location":"G894+83R, N1, Casablanca"},{"name":"Setirra","phoneNumber":"0522245400","websiteLink":"","location":"11, Rue Al, Komait al assadi, Casablanca 20303"},{"name":"Kiralma Sarl","phoneNumber":"0522357387","websiteLink":"","location":"234 Bd Anoual, Casablanca 20250"},{"name":"Societe Marocaine D' Agriculture Et D' Irrigation","phoneNumber":"0522254253","websiteLink":"","location":"Rue Des Papillons58, Casablanca 20100"},{"name":"Comptoir Des Techniques D'Irrigation De Meknès (C.T.I.M.) S.A.R.L","phoneNumber":"0535401039","websiteLink":"","location":"73, rue Ibn Jaljal, Casablanca 20100"},{"name":"LOWRINZ","phoneNumber":"0520548700","websiteLink":"https://www.lowrinz.com/","location":"MAGASIN, PORTE 43, N 2 COMPLEXE RESIDENTIEL EL BAIDA, Casablanca 20000"},{"name":"AIS","phoneNumber":"0661100228","websiteLink":"","location":"G9J6+V32, Casablanca"},{"name":"Societe D Etudes Des Travaux Ruraux D Irrigation Et D Agriculture","phoneNumber":"0522401675","websiteLink":"","location":"11 Rue Alkomait Alassadi, Ex Debussy, Casablanca 20100"},{"name":"Inlay Sarl","phoneNumber":"0522451404","websiteLink":"http://www.inlay.ma/","location":"Angle Bd Ibn Tachfine et, Bd d'Oujda, Casablanca 20310"},{"name":"NG Irrigation","phoneNumber":"0662284044","websiteLink":"","location":"N° 3 Rue Chrarda, Casablanca 20250"},{"name":"Allo Arrosage","phoneNumber":"0695387139","websiteLink":"https://www.allo-arrosage.ma/","location":"5 app, Résidence Ibn Khaldoun - Chabab Bloc, 1 Bd Ali Yaâta, Casablanca 20580"},{"name":"Riego centre","phoneNumber":"","websiteLink":"","location":"HCQ3+H8C, Casablanca 20250"},{"name":"Sanitaire et Materiels Agricoles AMANOUZ OUFLLA","phoneNumber":"0522404987","websiteLink":"","location":"121 Rue Mohamed El Radi Slaoui, Casablanca 20250"},{"name":"CASA DRIP","phoneNumber":"0522248600","websiteLink":"","location":"HCR3+9V3, RDC, Angle rue soisson et fond pierre, Quartier de la Gare,, Casablanca 20000"},{"name":"MAGRISER Casablanca","phoneNumber":"0522400594","websiteLink":"https://magriser.com/","location":"21 Bvd Oujda 2E Et, Casablanca 20300"},{"name":"ASSAINIA","phoneNumber":"0522359969","websiteLink":"","location":"JF98+J84, R322, Casablanca 20250"},{"name":"Societe Marocaine d' Irrigation Et d'Equipement Agricole","phoneNumber":"0658815698","websiteLink":"","location":"H9MQ+GVW, Bd de la Résistance, Casablanca 20250"},{"name":"Topirrig S.A.R.L.","phoneNumber":"0537520619","websiteLink":"","location":"161 Bd Abdelmoumen, Casablanca 20100"},{"name":"Cascades Plantes (paysagiste , Aménagement et entretien des jardins , Pépinière , irrigation )","phoneNumber":"0522329578","websiteLink":"https://www.telecontact.ma/annonceur/cascades-plantes/3127883/ain-harrouda.php#cords","location":"Route principale 1 , KM 15 , Ain Harrouda, Casablanca 28630"},{"name":"Omni Agricole S.A.R.L.","phoneNumber":"0535640812","websiteLink":"","location":"GCR6+XP8, Bd de Sefrou, Casablanca 20100"},{"name":"Comptoir Du Machinisme Agricole (Comag)","phoneNumber":"0535624697","websiteLink":"","location":"H9G4+M87, Rue De Qatar Ang. Rue Sudan, Casablanca 20100"},{"name":"Disagri sarl","phoneNumber":"","websiteLink":"","location":"Alles Des Villas, 11 Bis, Casablanca 20250"},{"name":"Comptoir Pré Agri","phoneNumber":"0520184423","websiteLink":"https://www.comptoirpreagri.com/","location":"16 Rue Hammad Rouieh, Casablanca 20390"},{"name":"Société Casablancaise De Développement Industriel et Agricole (SCADIA)","phoneNumber":"0522243410","websiteLink":"https://societe-casablancaise-de-developpement.business.site/","location":"90 Bd d'Oujda, Casablanca 20100"},{"name":"Cogemai","phoneNumber":"0522541060","websiteLink":"https://cogemai.com/","location":"Al Aoual ben Yassine Mohamed, Résidence Lahloua, 1 Rue Ibnou Al Arif, Casablanca 20300"},{"name":"IMPOSUR sarl","phoneNumber":"0522419345","websiteLink":"","location":"N, 20 Boulevard Sidi Mohamed Ben Abdellah, Casablanca 20250"},{"name":"HYDRATEC","phoneNumber":"0522404048","websiteLink":"http://www.hydratec.ma","location":"54 Bd Ba Hmad, Casablanca 20100"},{"name":"Magriser Systèmes d'Irrigation sarl : Matériel d'irrigation, pompage solaire, pompes","phoneNumber":"0523316070","websiteLink":"","location":"266 Ouest, Mohammedia"},{"name":"Aquamag","phoneNumber":"0662311857","websiteLink":"http://www.aquamag.ma/","location":"Boulevard Hassan 2, Mohammedia"},{"name":"Societe Marocaine D'Epaulettes Sa","phoneNumber":"0522244782","websiteLink":"","location":"Rue De Tinghir3, Casablanca 20100"},{"name":"Societe Badra Sarl","phoneNumber":"0522447128","websiteLink":"http://www.badramaroc.ma/","location":"HCR2+2GX, Bd Abdellah Ben Yacine, Casablanca 20100"}]},{"city":"Fes","enterprises":[{"name":"Bouderbala Irrigation","phoneNumber":"0670491330","websiteLink":"","location":"Route Sbaa Ayoun Bouderbala, Fes, Fès 30000"},{"name":"Hydro Omptoir Industriel Electric Marocain (C.H.E.I.M)","phoneNumber":"0535622834","websiteLink":"","location":"Bd., Med., Zerktouni, (Ex., Cuny, 30000"},{"name":"Prophymi","phoneNumber":"0535932158","websiteLink":"","location":"Fès 30050"},{"name":"AGRO RANS sarl","phoneNumber":"0535695515","websiteLink":"","location":"N°4 ,1er étage ,WORK SPACE ,en face café Blanco, Ain chkf, Fès 30040"}]},{"city":"Rabat","enterprises":[{"name":"NETAFIM Morocco","phoneNumber":"0537651423","websiteLink":"https://www.netafim.ma/","location":"Villa Chems, Avenue Mohammed VI, Route des Zaers, Rabat"},{"name":"Filtration, Irrigation, Fertilisation, Controle (Fif Control)","phoneNumber":"0537674244","websiteLink":"","location":"105, Av Al Amir Fal Ould Oumeir, 3°Ét., Rabat"},{"name":"BCI Farm","phoneNumber":"0537207758","websiteLink":"http://www.bcifarm.ma/","location":"Rue Ferhat Hachad, Rabat"},{"name":"Direction d'Irrigation et de l'Aménagement de l'Espace Agricole (DIAEA), MAPMDREF","phoneNumber":"0537103178","websiteLink":"","location":"X4XP+9R8, Rabat"},{"name":"La Marocaine Du Goutte À Goutte S.A.R.L.","phoneNumber":"0537771222","websiteLink":"","location":"5, Rue Aïn Asserdoune, Appt. 6 Agdal P.O.Box: 10090, Rabat"},{"name":"Tel Tube","phoneNumber":"0661630955","websiteLink":"https://teltube.business.site/","location":"et 10، Zone Industrielle Sbihi، Lots 9 Rte de Rabat, Salé 11000"}]},{"city":"Tangier","enterprises":[{"name":"Amal Irrigation","phoneNumber":"0528243723","websiteLink":"http://amalirrigation.com/","location":"Lot admim. E , n° 227, Ait Melloul 80000"}]},{"city":"Marrakesh","enterprises":[{"name":"Smart irrigation","phoneNumber":"0525017116","websiteLink":"","location":"N°1770, Lotissent Azzouzia, Marrakech"},{"name":"AYA WATER SERVICES","phoneNumber":"0524395692","websiteLink":"","location":"Unnamed Road, 40150"},{"name":"Sté Irrigare sarl","phoneNumber":"0661249470","websiteLink":"http://www.irrigare.ma/","location":"217 Douar Iziki Boulevard d'Essaouira., Marrakech"},{"name":"N-Agri : Système d'irrigation goutte à goutte,forage de puits et géomembrane au Maroc","phoneNumber":"0524200801","websiteLink":"http://www.agri-maroc.ma/","location":"Lotissement Al Massar 47 étage n°2 Appt. n°4, Marrakesh 40000"},{"name":"Societe Etcomar Sarl","phoneNumber":"0524457970","websiteLink":"","location":"Rue Ibn Aicha, Immeuble A No 22, 5Eme Etage Gueliz, Marrakech 40000"},{"name":"Irrigation Niaama","phoneNumber":"0666482510","websiteLink":"","location":"cycliste dr iziki, 278 db, Marrakech 40000"},{"name":"IRRIDIS","phoneNumber":"0524345627","websiteLink":"","location":"5 , Lotissement, Marrakech 40140"},{"name":"Hortisud - Marrakech","phoneNumber":"0528246032","websiteLink":"http://www.hortisud.com/","location":"932 Lot Al Massar Bur 6, Rte de Safi, Marrakech 40110"},{"name":"Société De Technologies Agricoles D'Irrigation Et D'Equipement (Sotaiq S.A.R.L.)","phoneNumber":"0524344465","websiteLink":"","location":"5, Rue D'Agadir , Q.I. Azli P.O.Box: 40000, Marrakech 40000"},{"name":"Innov Irrigation Systems","phoneNumber":"0524397772","websiteLink":"","location":"MXG5+77V, Marrakech 40150"},{"name":"MSK DRIP SARL","phoneNumber":"0661249172","websiteLink":"","location":"Harbil, Route de Safi, Marrakech 40000"},{"name":"REFTAGRI -SYSTEMES D'IRRIGATION- GOUTTE A GOUTTE.","phoneNumber":"0524016694","websiteLink":"http://www.reftagri.ma/","location":"showroom 1, N8, Marrakech 40000"},{"name":"REFTAGRI -SYSTEMES D'IRRIGATION- GOUTTE A GOUTTE.","phoneNumber":"0524016694","websiteLink":"http://www.reftagri.ma/","location":"showroom 1, N8, Marrakech 40000"},{"name":"BN'B AGRIHOME","phoneNumber":"0661056180","websiteLink":"","location":""},{"name":"MAGRISER Marrakech","phoneNumber":"0524336693","websiteLink":"","location":"Marrakech"},{"name":"Phyto Irrigation Du Haouz","phoneNumber":"","websiteLink":"","location":"Massira 2 Rue El Manara, Marrakech 40000"},{"name":"Msk drip","phoneNumber":"0661519602","websiteLink":"","location":"Route de safi, Marrakech 40000"},{"name":"Gold Irrigation - Vente et installation matériel d'irrigation Marrakech","phoneNumber":"0661443421","websiteLink":"https://gold-irrigation.business.site/?utm_source=gmb&utm_medium=referral","location":"CMV 432 SAADA Km 14 sur la, Rte d'Agadir, Marrakech 40000"},{"name":"Gema irrigation","phoneNumber":"0662896626","websiteLink":"","location":"JWHW+9P9, Marrakech 40140"},{"name":"Cogymar","phoneNumber":"0661214313","websiteLink":"","location":"numéro 6, magasin, 474, Marrakech 40000"},{"name":"Irrigation Sud","phoneNumber":"","websiteLink":"","location":"147 Route De Meknes Annakhil, Marrakech"},{"name":"Terramar","phoneNumber":"0524457970","websiteLink":"","location":"JXPQ+X4V, Rue Ibn Aïcha, Marrakech 40000"},{"name":"Cercles énergie","phoneNumber":"0614666721","websiteLink":"http://www.cerclesenergie.com/","location":"Lot N° 893, Marrakech 40000"},{"name":"Espace aquatec maroc","phoneNumber":"0524200242","websiteLink":"","location":"MXH4+Q5G، lot maazouzia, Marrakesh"},{"name":"Marrakech Phyto","phoneNumber":"0524311405","websiteLink":"","location":"Lamnabha, Centre 44, Marrakech, Marrakech 40000"},{"name":"GENEMAB","phoneNumber":"","websiteLink":"","location":"JQM4+HXG, Rue Loudaya, Marrakech"},{"name":"Irripool by Irrijardin Marrakech","phoneNumber":"0662626781","websiteLink":"https://irripool.ma/","location":"Lot 9 et 10, Place commerciale, Domaine de Noria, Marrakech"},{"name":"BF Solution","phoneNumber":"0661376610","websiteLink":"https://bf-solution.business.site/?utm_source=gmb&utm_medium=referral","location":"n°1, BF Solution Lot Abouab, n° 19 Magasin, Marrakech 40000"},{"name":"Fif Controle Sarl","phoneNumber":"0524490557","websiteLink":"","location":"13- Boulevard Abdellah Ben Yacine, Marrakech"},{"name":"Innovation Vertes : Société de jardinage à Marrakech","phoneNumber":"0661248966","websiteLink":"https://innovation-verte.com/","location":"Lot 299 Romia Askejour Mhammid، 40160"},{"name":"VIMAGI sarl","phoneNumber":"0524343380","websiteLink":"https://vimagi.ma/","location":"27, hay Massira II, Anbar III mag. n°19, 40140"}]},{"city":"Agadir","enterprises":[{"name":"Fath Irrigation","phoneNumber":"0528284694","websiteLink":"","location":"HAY MiMOUNA BLOC 05 AV PRINCIPAL, Agadir 80000"},{"name":"Uni-Drip","phoneNumber":"0528333384","websiteLink":"http://unidrip.com/","location":"D53 Zone Industrielle Tassila, Agadir 80000"},{"name":"LINAGREEN SIEGE","phoneNumber":"0528291125","websiteLink":"http://www.linagreen.ma/","location":"E 203, 2ème étage, Agadir Bay1, Agadir 80010"},{"name":"LINAGREEN SIEGE","phoneNumber":"0528291125","websiteLink":"http://www.linagreen.ma/","location":"E 203, 2ème étage, Agadir Bay1, Agadir 80010"},{"name":"Hydro Val","phoneNumber":"0528333385","websiteLink":"","location":"Zone Industrielle Tassila , D-53 P.O.Box: 80000, Agadir 80000"},{"name":"Hydro Val","phoneNumber":"0528333385","websiteLink":"","location":"Zone Industrielle Tassila , D-53 P.O.Box: 80000, Agadir 80000"},{"name":"MAGRISER Agadir","phoneNumber":"0528247946","websiteLink":"","location":"472 Av. Hassan II, Aït Melloul 80000"},{"name":"Amal Irrigation","phoneNumber":"0528243723","websiteLink":"http://amalirrigation.com/","location":"Lot admim. E , n° 227, Ait Melloul 80000"},{"name":"MIRAM LAND","phoneNumber":"0528248907","websiteLink":"https://miram-land.business.site/","location":"Bloc A ,n°128, Av. Al Mouqaouama, Ait Melloul 80000"},{"name":"irri piscine agadir matériel piscine","phoneNumber":"0661514380","websiteLink":"","location":"P1714, Aït Melloul 80000"},{"name":"Futur Systéme Irrigation","phoneNumber":"0528311814","websiteLink":"","location":"7GPX+V46, Leqlaa El Foukania , Route Principale BIOUGRA, Leqliaa"},{"name":"AGROEXPERTISE","phoneNumber":"0528816105","websiteLink":"https://agroexpertise.ma/","location":"lot n°85 Zone Industrielle Sidi Bibi Agadir, Sidi-Bibi 87274"}]},{"city":"Salé","enterprises":[{"name":"Amal Irrigation","phoneNumber":"0528243723","websiteLink":"http://amalirrigation.com/","location":"Lot admim. E , n° 227, Ait Melloul 80000"},{"name":"Amal Irrigation","phoneNumber":"0528243723","websiteLink":"http://amalirrigation.com/","location":"Lot admim. E , n° 227, Ait Melloul 80000"},{"name":"Amal Irrigation","phoneNumber":"0528243723","websiteLink":"http://amalirrigation.com/","location":"Lot admim. E , n° 227, Ait Melloul 80000"},{"name":"IRRIGATION","phoneNumber":"","websiteLink":"","location":"8PJQ+5P3, Gfifat"},{"name":"IRRIGATION","phoneNumber":"","websiteLink":"","location":"8PJQ+5P3, Gfifat"},{"name":"Wafa Irrigation","phoneNumber":"0528539113","websiteLink":"","location":"MR9C+X58, N10, Aoulouz"},{"name":"IRRIGATION SIDI KHYAR | لوازم السقي و المضخات","phoneNumber":"","websiteLink":"","location":"N8"},{"name":"Mr.Bricolage Agadir","phoneNumber":"0619564248","websiteLink":"http://www.mrbricolage.ma/","location":"Parc marjane, Agadir 80000"}]},{"city":"Oujda","enterprises":[{"name":"IRRI POWER","phoneNumber":"0661670910","websiteLink":"http://www.irripower.ma/","location":"10 Rue attia Kiss Alfath Mag44, Oujda 60000"},{"name":"IRRI POWER","phoneNumber":"0661670910","websiteLink":"http://www.irripower.ma/","location":"10 Rue attia Kiss Alfath Mag44, Oujda 60000"},{"name":"IRRI POWER","phoneNumber":"0661670910","websiteLink":"http://www.irripower.ma/","location":"10 Rue attia Kiss Alfath Mag44, Oujda 60000"},{"name":"Régie Autonome Intercommunale De Distribution D'Eau Et D'Electricité D'Oujda","phoneNumber":"0536501406","websiteLink":"http://www.radeeo.ma/","location":"Hay Hikma, Bd. De La Liberte, L'Oriental, 60000, Oujda, شارع العرفان، Oujda 60000"},{"name":"Régie Autonome Intercommunale De Distribution D'Eau Et D'Electricité D'Oujda","phoneNumber":"0536501406","websiteLink":"http://www.radeeo.ma/","location":"Hay Hikma, Bd. De La Liberte, L'Oriental, 60000, Oujda, شارع العرفان، Oujda 60000"}]},{"city":"Khouribga","enterprises":[{"name":"INGIROUTE ( Bureau d'études techniques)","phoneNumber":"","websiteLink":"","location":"72 Rue Moulay Abdellah, Khouribga"},{"name":"INGIROUTE ( Bureau d'études techniques)","phoneNumber":"","websiteLink":"","location":"72 Rue Moulay Abdellah, Khouribga"},{"name":"INGIROUTE ( Bureau d'études techniques)","phoneNumber":"","websiteLink":"","location":"72 Rue Moulay Abdellah, Khouribga"},{"name":"SOCIETE D'ETUDE CIVIL ET ENGINEERING","phoneNumber":"0636460745","websiteLink":"https://societe-detude-civil-et-engineering.business.site/?utm_source=gmb&utm_medium=referral","location":"1ere etage, 33 Rue Tadla, Khouribga"}]},{"city":"Meknes","enterprises":[{"name":"Société irrigation meknes","phoneNumber":"0667773928","websiteLink":"https://www.rdimaroc.com/","location":"avenue boendong, Meknès"},{"name":"Société irrigation meknes","phoneNumber":"0667773928","websiteLink":"https://www.rdimaroc.com/","location":"avenue boendong, Meknès"},{"name":"IRRISYS Meknès : Etude et installation systèmes d' irrigation goutte à goutte.","phoneNumber":"0535537352","websiteLink":"http://www.irrisys.com/","location":"Ave Zitoune, Meknes"},{"name":"Sté Jerboui Pour L'Irrigation Et L'Agriculture (S.O.J.I.A.)","phoneNumber":"0535525077","websiteLink":"","location":"20, Av. Abou Ali Ben Rahal P.O.Box: 50000, Meknès 50000"},{"name":"Ste Irrigation meknes","phoneNumber":"","websiteLink":"","location":"VFW7+2X9, Rue de Bendoeng, Meknès"},{"name":"SOCIETE MAROCAINE DE COMMERCE ET SERVICE","phoneNumber":"0643290954","websiteLink":"http://www.somacos.ma/","location":"VC5F+C82, Ave Zitoune, Meknes"},{"name":"SOCIETE MAROCAINE DE COMMERCE ET SERVICE","phoneNumber":"","websiteLink":"","location":"VC79+MJW, Unnamed Road, Meknes"},{"name":"Sté Geonord","phoneNumber":"0661736076","websiteLink":"","location":"n°1, Zankat Al Ouahda , Résidence Al Azhar, Meknès"},{"name":"soulara","phoneNumber":"0535528648","websiteLink":"http://www.soularabat.com/","location":"Résidence kounouz 2 Mag 4 Av des Fars, Meknès 50000"},{"name":"ADEBIR bureau d'etude","phoneNumber":"0535526935","websiteLink":"","location":"N°4 Appt. 5 Rue Ghana V.N, Meknès 50000"},{"name":"LES FRERES MANSOURI ETUDE ET TRAVAUX DIVERS","phoneNumber":"0639990766","websiteLink":"http://www.rdimaroc.com/","location":"I-B DIAR MENZH ET-3 AP27، Rue de Chefchaouen, Meknes 50000"},{"name":"Unimagri Meknès Sidi Bouzakri","phoneNumber":"0673536860","websiteLink":"http://www.unimagri.com/","location":"VF4C+JJR, N13, Meknes"},{"name":"Plastic Puglia","phoneNumber":"0629831344","websiteLink":"http://www.plasticpuglia.it/fr/","location":"246 Ain Maaza Belle vue3, Meknès 50000"},{"name":"Ste irrigation et travaux sarl","phoneNumber":"0667735236","websiteLink":"","location":"VFW9+2WP, Meknes"},{"name":"Lara-sys D'irrigation","phoneNumber":"0661485780","websiteLink":"","location":"Albasatin, ain slogi, Meknes 50000"}]},{"city":"Kenitra","enterprises":[{"name":"Agro service m'nasra (ASM)","phoneNumber":"0537365570","websiteLink":"","location":"Rue N 24, Kénitra 14000"},{"name":"Agro service m'nasra (ASM)","phoneNumber":"0537365570","websiteLink":"","location":"Rue N 24, Kénitra 14000"},{"name":"Agro service m'nasra (ASM)","phoneNumber":"0537365570","websiteLink":"","location":"Rue N 24, Kénitra 14000"},{"name":"DRIP TODAY","phoneNumber":"0666825112","websiteLink":"https://drip-today.com/","location":"bureau n°2, Résidence Yassmin, 25 Avenue Imam Ali, Kenitra 14000"},{"name":"DRIP TODAY","phoneNumber":"0666825112","websiteLink":"https://drip-today.com/","location":"bureau n°2, Résidence Yassmin, 25 Avenue Imam Ali, Kenitra 14000"},{"name":"Irrigation ConstructionAssainissement Routes Etudes","phoneNumber":"","websiteLink":"","location":"1 Rue Ghandi‬‎, Kénitra"},{"name":"Irrigation ConstructionAssainissement Routes Etudes","phoneNumber":"","websiteLink":"","location":"1 Rue Ghandi‬‎, Kénitra"},{"name":"Irrigation ConstructionAssainissement Routes Etudes","phoneNumber":"","websiteLink":"","location":"1 Rue Ghandi‬‎, Kénitra"},{"name":"BAUER Resources Maroc","phoneNumber":"0537383128","websiteLink":"http://www.bauer.de/","location":"Immeuble 19 Rue Tarfaya, Kénitra"}]},{"city":"Tetouan","enterprises":[{"name":"DEHBI 4S sarl : installation systémes d'irrigation, arrosage automatique et aménagement espaces vertes","phoneNumber":"0633576312","websiteLink":"https://dehbi-4s.business.site/?utm_source=gmb&utm_medium=referral","location":"HJF4+XX6, Avenue Sidi Talha, Tétouan"}]},{"city":"Safi","enterprises":[{"name":"Sté BLADI IRRIGATION","phoneNumber":"","websiteLink":"","location":"Av. Chahid Abdel Ali Ben Chekroune, Safi"},{"name":"Sté BLADI IRRIGATION","phoneNumber":"","websiteLink":"","location":"Av. Chahid Abdel Ali Ben Chekroune, Safi"}]},{"city":"Temara","enterprises":[{"name":"SEAGRIME","phoneNumber":"0661497554","websiteLink":"","location":"17, Skikina, Av. Hassan II, Témara 12010"},{"name":"SEAGRIME","phoneNumber":"0661497554","websiteLink":"","location":"17, Skikina, Av. Hassan II, Témara 12010"},{"name":"UNIVERS RIEGOS","phoneNumber":"0537645828","websiteLink":"","location":"Residence Oasis Bloc C APT.2, Av. Mohamed VI, Temara-harhoura 12040"},{"name":"Irrigation Tourkzi","phoneNumber":"0666950260","websiteLink":"","location":"R3CW+PQ7, P4036, Tamesna"},{"name":"NETAFIM Morocco","phoneNumber":"0537651423","websiteLink":"https://www.netafim.ma/","location":"Villa Chems, Avenue Mohammed VI, Route des Zaers, Rabat"},{"name":"Mabrouka Serre S.A.R.L","phoneNumber":"0537742273","websiteLink":"","location":"Centre Sud, Skhirat Temara, 12000"},{"name":"Plan Jardin Maroc","phoneNumber":"0661681469","websiteLink":"","location":"38, Lot. Oulad Mtaa, Témara 12040"},{"name":"DROGUERIE AMANATEM","phoneNumber":"0698784257","websiteLink":"https://amanatem.ma/","location":"HAY EL ALAOUYINE, 236 Av. Mohammed V, Témara 12000"},{"name":"BRICOMA TEMARA","phoneNumber":"0537403969","websiteLink":"http://www.bricoma.ma/","location":"Centre commercial Marjane, Av. Hassan II, Témara 12000"}]},{"city":"Mohammedia","enterprises":[{"name":"Magriser Systèmes d'Irrigation sarl : Matériel d'irrigation, pompage solaire, pompes","phoneNumber":"0523316070","websiteLink":"","location":"266 Ouest, Mohammedia"},{"name":"Magriser Systèmes d'Irrigation sarl : Matériel d'irrigation, pompage solaire, pompes","phoneNumber":"0523316070","websiteLink":"","location":"266 Ouest, Mohammedia"}]},{"city":"El Jadida","enterprises":[{"name":"Technologie Marocaine d'irrigation","phoneNumber":"0661636433","websiteLink":"","location":"Appt 04 112 Bd Mohammed V, El Jadida 24000"},{"name":"Technologie Marocaine d'irrigation","phoneNumber":"0661636433","websiteLink":"","location":"Appt 04 112 Bd Mohammed V, El Jadida 24000"},{"name":"Technologie Marocaine d'irrigation","phoneNumber":"0661636433","websiteLink":"","location":"Appt 04 112 Bd Mohammed V, El Jadida 24000"},{"name":"CMGP","phoneNumber":"0523377636","websiteLink":"http://www.cmgp.com/","location":"N1"}]},{"city":"Beni Mellal","enterprises":[{"name":"FIRMA IRRIGATION","phoneNumber":"0523485548","websiteLink":"","location":"n°4 Avenue Des Far Lot Souad II, Béni Mellal"},{"name":"FIRMA IRRIGATION","phoneNumber":"0523485548","websiteLink":"","location":"n°4 Avenue Des Far Lot Souad II, Béni Mellal"},{"name":"IRRISYS Béni Mellal : Etude et installation systèmes d' irrigation goutte à goutte.","phoneNumber":"0523481923","websiteLink":"http://www.irrisys.com/","location":"Boulevard Mohamed VI, Benimellal 23000"},{"name":"Irrigation Plus","phoneNumber":"0523421400","websiteLink":"","location":"8JMP+R8J, Bd Hassan II, Béni Mellal 23000"}]},{"city":"Aït Melloul","enterprises":[{"name":"Amal Irrigation","phoneNumber":"0528243723","websiteLink":"http://amalirrigation.com/","location":"Lot admim. E , n° 227, Ait Melloul 80000"},{"name":"Amal Irrigation","phoneNumber":"0528243723","websiteLink":"http://amalirrigation.com/","location":"Lot admim. E , n° 227, Ait Melloul 80000"},{"name":"Hermisan Maroc","phoneNumber":"0528241125","websiteLink":"http://www.hermisan.com/","location":"8GP7+2CG, Av. Assafine, Aït Melloul 80000"},{"name":"Ste.Omni.DRIP.Sarl.Au","phoneNumber":"0666146763","websiteLink":"","location":"50000, Aït Melloul"},{"name":"FERKLA IRRIGATION","phoneNumber":"0528308754","websiteLink":"","location":"1 km Route Biougra Ait Melloul - Agadir, Agadir 80000"},{"name":"STE SYRALI SARL","phoneNumber":"0528246370","websiteLink":"http://www.syrali.ma/","location":"N10, Ait Melloul 80000"},{"name":"Hortisud","phoneNumber":"0528246032","websiteLink":"http://www.hortisud.com/","location":"Lot 427, Zone Industrielle, Ait Melloul 80150"},{"name":"Dima Souss","phoneNumber":"0528240905","websiteLink":"http://www.dimasouss.ma/","location":"Av. Al Mouqaouama, Aït Melloul 80000"},{"name":"Masters irrigation","phoneNumber":"","websiteLink":"","location":"1714 Av. Al Mouqaouama, Aït Melloul 80150"},{"name":"Targa Irrigation S.A.R.L","phoneNumber":"0528240949","websiteLink":"","location":"Av. Elm'Zar, Imm. Hadj N°10 P.O.Box: 80150, Aït Melloul 80150"},{"name":"MAGRISER Agadir","phoneNumber":"0528247946","websiteLink":"","location":"472 Av. Hassan II, Aït Melloul 80000"},{"name":"AGRO RS GROUPE","phoneNumber":"0528246890","websiteLink":"","location":"N° 785 ZONE INDUST, Ait Melloul 86150"},{"name":"MIRAM LAND","phoneNumber":"0528248907","websiteLink":"https://miram-land.business.site/","location":"Bloc A ,n°128, Av. Al Mouqaouama, Ait Melloul 80000"},{"name":"Electro Water Systems","phoneNumber":"0600898960","websiteLink":"","location":"Rue Taroudant B2 - N92, Aït Melloul 80120"},{"name":"STE OMNI DRIP SARL AU","phoneNumber":"","websiteLink":"","location":"8GX3+6J4, Aït Melloul 80000"},{"name":"G.e.e.a (Génie Electronique Eltrotechnique Agricole)","phoneNumber":"0528308833","websiteLink":"","location":"8GW3+RHC, Av. Ait Baamrane, Aït Melloul 80000"},{"name":"STE DIMA SER","phoneNumber":"","websiteLink":"","location":"8GX2+M3R, Aït Melloul 80000"},{"name":"Tissi Land S.a.r.l.","phoneNumber":"0528247140","websiteLink":"","location":"Centre de Vie n°9, Av. Brahim Erroudani, Ait Melloul 80000"},{"name":"irri piscine agadir matériel piscine","phoneNumber":"0661514380","websiteLink":"","location":"P1714, Aït Melloul 80000"},{"name":"SCPC SAPEL IRRIGATION SYSTEM","phoneNumber":"","websiteLink":"","location":"Qi Ait Melloul 1, Aït Melloul 80000"}]},{"city":"Nador","enterprises":[{"name":"Droguerie Anouar Tijani","phoneNumber":"0661968921","websiteLink":"","location":"Lot Onda, Av. Al Massira, Nador 62000"},{"name":"Droguerie Anouar Tijani","phoneNumber":"0661968921","websiteLink":"","location":"Lot Onda, Av. Al Massira, Nador 62000"},{"name":"Droguerie Anouar Tijani","phoneNumber":"0661968921","websiteLink":"","location":"Lot Onda, Av. Al Massira, Nador 62000"}]},{"city":"Dar Bouazza","enterprises":[]},{"city":"Taza","enterprises":[{"name":"Ste mb coste irrigation et solaire","phoneNumber":"0661795078","websiteLink":"","location":"IMM EL HAZZATE, Boulevard Bir Anzarane, Taza 35000"}]},{"city":"Settat","enterprises":[{"name":"Sos Irrigation & Pompage","phoneNumber":"0661684809","websiteLink":"","location":"Bd Far -Settat 413, Settat 26000"},{"name":"Sos Irrigation & Pompage","phoneNumber":"0661684809","websiteLink":"","location":"Bd Far -Settat 413, Settat 26000"},{"name":"Sos Irrigation & Pompage","phoneNumber":"0661684809","websiteLink":"","location":"Bd Far -Settat 413, Settat 26000"}]},{"city":"Berrechid","enterprises":[{"name":"IRRIGATION EL OMARI","phoneNumber":"","websiteLink":"","location":"7C76+5QH، شارع الداخلة, Berrechid"},{"name":"IRRIGATION EL OMARI","phoneNumber":"","websiteLink":"","location":"7C76+5QH، شارع الداخلة, Berrechid"},{"name":"GAEPPS IRRIGATION SYSTÈME","phoneNumber":"0522964764","websiteLink":"","location":"7C6C+224, Rte de Khouribga, Berrchid"},{"name":"GAEPPS IRRIGATION SYSTÈME","phoneNumber":"0522964764","websiteLink":"","location":"7C6C+224, Rte de Khouribga, Berrchid"},{"name":"Ste Internationale d'irrigation moderne","phoneNumber":"0634504499","websiteLink":"","location":"39, Bd. Fatimiy?ne - Z.I. -, Berrchid 26100"},{"name":"HYDROMECHAL","phoneNumber":"0522336112","websiteLink":"","location":"7C79+HGC، RUE AL MASJID, Berrchid, Berrechid"}]},{"city":"Khemisset","enterprises":[{"name":"Comptoir Agricole de Khemisset et Régions","phoneNumber":"0537553239","websiteLink":"","location":"118 boulevard Mohamed V, Khemisset"},{"name":"Comptoir Agricole de Khemisset et Régions","phoneNumber":"0537553239","websiteLink":"","location":"118 boulevard Mohamed V, Khemisset"},{"name":"Direction Provincial de l'Agriculture","phoneNumber":"0537552913","websiteLink":"https://www.agriculture.gov.ma/","location":"Av. Khalid Ibn Al Walid, Khémisset"},{"name":"Direction Provincial de l'Agriculture","phoneNumber":"0537552913","websiteLink":"https://www.agriculture.gov.ma/","location":"Av. Khalid Ibn Al Walid, Khémisset"},{"name":"La gare routière","phoneNumber":"","websiteLink":"","location":"Khémisset"}]},{"city":"Inezgane","enterprises":[{"name":"Uni-drip Projects","phoneNumber":"0661328392","websiteLink":"http://www.unidrip.com/","location":"Bureau N°1, 2eme étage, Rue Mellilia, Inezgane 80650"},{"name":"Uni-drip Projects","phoneNumber":"0661328392","websiteLink":"http://www.unidrip.com/","location":"Bureau N°1, 2eme étage, Rue Mellilia, Inezgane 80650"},{"name":"Uni-drip Projects","phoneNumber":"0661328392","websiteLink":"http://www.unidrip.com/","location":"Bureau N°1, 2eme étage, Rue Mellilia, Inezgane 80650"},{"name":"Ste.Omni.DRIP.Sarl.Au","phoneNumber":"0666146763","websiteLink":"","location":"50000, Aït Melloul"},{"name":"Ste.Omni.DRIP.Sarl.Au","phoneNumber":"0666146763","websiteLink":"","location":"50000, Aït Melloul"},{"name":"Ste.Omni.DRIP.Sarl.Au","phoneNumber":"0666146763","websiteLink":"","location":"50000, Aït Melloul"},{"name":"LINAGREEN SIEGE","phoneNumber":"0528291125","websiteLink":"http://www.linagreen.ma/","location":"E 203, 2ème étage, Agadir Bay1, Agadir 80010"},{"name":"LINAGREEN SIEGE","phoneNumber":"0528291125","websiteLink":"http://www.linagreen.ma/","location":"E 203, 2ème étage, Agadir Bay1, Agadir 80010"},{"name":"LINAGREEN SIEGE","phoneNumber":"0528291125","websiteLink":"http://www.linagreen.ma/","location":"E 203, 2ème étage, Agadir Bay1, Agadir 80010"},{"name":"G.e.e.a (Génie Electronique Eltrotechnique Agricole)","phoneNumber":"0528308833","websiteLink":"","location":"8GW3+RHC, Av. Ait Baamrane, Aït Melloul 80000"},{"name":"G.e.e.a (Génie Electronique Eltrotechnique Agricole)","phoneNumber":"0528308833","websiteLink":"","location":"8GW3+RHC, Av. Ait Baamrane, Aït Melloul 80000"},{"name":"G.e.e.a (Génie Electronique Eltrotechnique Agricole)","phoneNumber":"0528308833","websiteLink":"","location":"8GW3+RHC, Av. Ait Baamrane, Aït Melloul 80000"},{"name":"AGRO RS GROUPE","phoneNumber":"0528246890","websiteLink":"","location":"N° 785 ZONE INDUST, Ait Melloul 86150"},{"name":"AGRO RS GROUPE","phoneNumber":"0528246890","websiteLink":"","location":"N° 785 ZONE INDUST, Ait Melloul 86150"},{"name":"STE DIMA SER","phoneNumber":"","websiteLink":"","location":"8GX2+M3R, Aït Melloul 80000"},{"name":"Futur Systéme Irrigation","phoneNumber":"0528311814","websiteLink":"","location":"7GPX+V46, Leqlaa El Foukania , Route Principale BIOUGRA, Leqliaa"},{"name":"STE OMNI DRIP SARL AU","phoneNumber":"","websiteLink":"","location":"8GX3+6J4, Aït Melloul 80000"},{"name":"Masters irrigation","phoneNumber":"","websiteLink":"","location":"1714 Av. Al Mouqaouama, Aït Melloul 80150"},{"name":"star irrigation","phoneNumber":"0677920187","websiteLink":"","location":"Aït Melloul 80000"},{"name":"Larazoo irrigation","phoneNumber":"0666378569","websiteLink":"http://www.larazoo.com/","location":"Avenue Ennour, Temsia 86602"},{"name":"AGROEXPERTISE","phoneNumber":"0528816105","websiteLink":"https://agroexpertise.ma/","location":"lot n°85 Zone Industrielle Sidi Bibi Agadir, Sidi-Bibi 87274"},{"name":"AGROEXPERTISE","phoneNumber":"0528816105","websiteLink":"https://agroexpertise.ma/","location":"lot n°85 Zone Industrielle Sidi Bibi Agadir, Sidi-Bibi 87274"},{"name":"Dima Souss","phoneNumber":"0528240905","websiteLink":"http://www.dimasouss.ma/","location":"Av. Al Mouqaouama, Aït Melloul 80000"},{"name":"Tissi Land S.a.r.l.","phoneNumber":"0528247140","websiteLink":"","location":"Centre de Vie n°9, Av. Brahim Erroudani, Ait Melloul 80000"},{"name":"Hortisud","phoneNumber":"0528246032","websiteLink":"http://www.hortisud.com/","location":"Lot 427, Zone Industrielle, Ait Melloul 80150"}]},{"city":"Ksar El Kebir","enterprises":[]},{"city":"Larache","enterprises":[{"name":"IRRISYS Larache : Etude et installation systèmes d' irrigation goutte à goutte.","phoneNumber":"0661584307","websiteLink":"http://www.irrisys.com/","location":"5VC6+VC6, Unnamed Road, Larache"},{"name":"IRRISYS Larache : Etude et installation systèmes d' irrigation goutte à goutte.","phoneNumber":"0661584307","websiteLink":"http://www.irrisys.com/","location":"5VC6+VC6, Unnamed Road, Larache"}]},{"city":"Guelmim","enterprises":[{"name":"H&M IRRI","phoneNumber":"","websiteLink":"","location":"XWRP+PPQ، شارع المسيرة, Guelmim 81000"},{"name":"H&M IRRI","phoneNumber":"","websiteLink":"","location":"XWRP+PPQ، شارع المسيرة, Guelmim 81000"}]},{"city":"Khenifra","enterprises":[{"name":"CAGP : Compagnie Ait Atta de Goutte à Goutte et de Pompage_Khénifra","phoneNumber":"0535586920","websiteLink":"","location":"P24, Khénifra"}]},{"city":"Berkane","enterprises":[{"name":"IRRIEST","phoneNumber":"0536231101","websiteLink":"http://www.irriest.com/","location":"Boulevard Slimania, Berkane 63000"},{"name":"IRRIEST","phoneNumber":"0536231101","websiteLink":"http://www.irriest.com/","location":"Boulevard Slimania, Berkane 63000"},{"name":"IRRIEST","phoneNumber":"0536231101","websiteLink":"http://www.irriest.com/","location":"Boulevard Slimania, Berkane 63000"},{"name":"IRRIEST","phoneNumber":"0536231010","websiteLink":"http://www.irriest.com/","location":"Lot i16 Agropole de Madagh, Berkane 60300"}]},{"city":"Taourirt","enterprises":[{"name":"Sté Taourirt Trading","phoneNumber":"0661980881","websiteLink":"","location":"Taourirt 60800"},{"name":"Sté Taourirt Trading","phoneNumber":"0661980881","websiteLink":"","location":"Taourirt 60800"},{"name":"Sté Taourirt Trading","phoneNumber":"0661980881","websiteLink":"","location":"Taourirt 60800"}]},{"city":"Bouskoura","enterprises":[{"name":"AIS","phoneNumber":"0661100228","websiteLink":"","location":"G9J6+V32, Casablanca"},{"name":"AIS","phoneNumber":"0661100228","websiteLink":"","location":"G9J6+V32, Casablanca"},{"name":"AIS Agricultural irrigation system","phoneNumber":"0661100228","websiteLink":"http://www.ais-agri.ma/","location":"G894+83R, N1, Casablanca"},{"name":"Societe D Etudes Des Travaux Ruraux D Irrigation Et D Agriculture","phoneNumber":"0522401675","websiteLink":"","location":"11 Rue Alkomait Alassadi, Ex Debussy, Casablanca 20100"},{"name":"Lara-sys D'irrigation","phoneNumber":"0661485780","websiteLink":"","location":"G9JP+9X5, Casablanca"},{"name":"Omni Agricole S.A.R.L.","phoneNumber":"0535640812","websiteLink":"","location":"GCR6+XP8, Bd de Sefrou, Casablanca 20100"},{"name":"Mr.Bricolage Bouskoura","phoneNumber":"0520400733","websiteLink":"http://www.mrbricolage.ma/","location":"Route de Bouskoura, Casablanca 20190"},{"name":"pepiniere VIKAS VERTE","phoneNumber":"0661100967","websiteLink":"https://www.facebook.com/VIKASVERTE/","location":"Unnamed Road, Bouskoura"},{"name":"STOKVIS","phoneNumber":"","websiteLink":"http://www.stokvis.ma/","location":"C9F4+Q8V, Bouskoura"},{"name":"Agence CMGP.CAS Casablanca","phoneNumber":"0522249115","websiteLink":"https://www.cmgp-cas.com/","location":"Mohamed, 135 Rue du Lieutenant Mohamed Mahroud, Casablanca 20310"},{"name":"Sanitaire et Materiels Agricoles AMANOUZ OUFLLA","phoneNumber":"0522404987","websiteLink":"","location":"121 Rue Mohamed El Radi Slaoui, Casablanca 20250"},{"name":"Allo Arrosage","phoneNumber":"0695387139","websiteLink":"https://www.allo-arrosage.ma/","location":"5 app, Résidence Ibn Khaldoun - Chabab Bloc, 1 Bd Ali Yaâta, Casablanca 20580"},{"name":"H.S verte","phoneNumber":"0610289982","websiteLink":"http://hsverte.com/?utm_source=gmb&utm_medium=referral","location":""},{"name":"Cascades Plantes (paysagiste , Aménagement et entretien des jardins , Pépinière , irrigation )","phoneNumber":"0522329578","websiteLink":"https://www.telecontact.ma/annonceur/cascades-plantes/3127883/ain-harrouda.php#cords","location":"Route principale 1 , KM 15 , Ain Harrouda, Casablanca 28630"}]}]
